[
    {
        "name": "Mount Sinai Fertility - Main",
        "address": "250 Dundas Street West, Toronto, ON",
        "physicians": 8,
        "clinicGroup": "mount-sinai",
        "type": "high"
    },
    {
        "name": "Mount Sinai Fertility - Vaughan",
        "address": "9600 Bathurst St, Maple, ON",
        "physicians": 8,
        "clinicGroup": "mount-sinai",
        "type": "high"
    },
    {
        "name": "Mount Sinai Fertility - Mississauga",
        "address": "800 Southdown Rd, Mississauga, ON",
        "physicians": 8,
        "clinicGroup": "mount-sinai",
        "type": "high"
    },
    {
        "name": "Mount Sinai Fertility - North York",
        "address": "2 Sheppard Avenue east, Toronto, ON",
        "physicians": 8,
        "clinicGroup": "mount-sinai",
        "type": "medium"
    },
    {
        "name": "ReproMed Fertility - Downtown",
        "address": "456 Bay Street, Toronto, ON",
        "lat": 43.6532,
        "lng": -79.3832,
        "physicians": 5,
        "clinicGroup": "repromed",
        "type": "medium"
    },
    {
        "name": "TRIO Fertility - Toronto",
        "address": "655 Bay Street, Toronto, ON",
        "lat": 43.6625,
        "lng": -79.3855,
        "physicians": 6,
        "clinicGroup": "trio",
        "type": "medium"
    },
    {
        "name": "ONE Fertility - Mississauga",
        "address": "2150 Burnhamthorpe Road West, Mississauga, ON",
        "lat": 43.5890,
        "lng": -79.6441,
        "physicians": 4,
        "clinicGroup": "one-fertility",
        "type": "medium"
    },
    {
        "name": "Create Fertility - Toronto",
        "address": "790 Bay Street, Toronto, ON",
        "lat": 43.6680,
        "lng": -79.3870,
        "physicians": 3,
        "clinicGroup": "create",
        "type": "low"
    }
]