[
    {
        "name": "Toronto (SickKids)",
        "lat": 43.6575,
        "lng": -79.3875,
        "cases": 19,
        "type": "high",
        "region": "GTA"
    },
    {
        "name": "Toronto (MSH/WCH/PMH/UHN)",
        "lat": 43.6959,
        "lng": -79.4497,
        "cases": 8,
        "type": "medium",
        "region": "GTA"
    },
    {
        "name": "London",
        "lat": 42.9849,
        "lng": -81.2453,
        "cases": 5,
        "type": "medium",
        "region": "Other"
    },
    {
        "name": "Ottawa",
        "lat": 45.4215,
        "lng": -75.6972,
        "cases": 1,
        "type": "low",
        "region": "Other"
    },
    {
        "name": "Hamilton",
        "lat": 43.2552,
        "lng": -79.8708,
        "cases": 1,
        "type": "low",
        "region": "Other"
    },
    {
        "name": "Windsor",
        "lat": 42.3015,
        "lng": -82.9973,
        "cases": 1,
        "type": "low",
        "region": "Other"
    },
    {
        "name": "Mississauga",
        "lat": 43.5890,
        "lng": -79.6441,
        "cases": 1,
        "type": "low",
        "region": "GTA"
    },
    {
        "name": "Barrie (RVH)",
        "lat": 44.4147,
        "lng": -79.6624,
        "cases": 1,
        "type": "low",
        "region": "Other"
    }
]